[
    {
      "name": "حلوان",
      "latitude": 29.8414,
      "longitude": 31.3008
    },
    {
      "name": "عين حلوان",
      "latitude": 29.8551,
      "longitude": 31.3039
    },
    {
      "name": "جامعة حلوان",
      "latitude": 29.8711,
      "longitude": 31.3092
    },
    {
      "name": "وادي حوف",\
      "latitude": 29.8856,
      "longitude": 31.3128
    },
    {
      "name": "حدائق حلوان",
      "latitude": 29.9001,
      "longitude": 31.3159
    },
    {
      "name": "المعصرة",
      "latitude": 29.9146,
      "longitude": 31.3190
    },
    {
      "name": "طرة الأسمنت",
      "latitude": 29.9291,
      "longitude": 31.3221
    },
    {
      "name": "كوتسيكا",
      "latitude": 29.9436,
      "longitude": 31.3252
    },
    {
      "name": "طرة البلد",
      "latitude": 29.9581,
      "longitude": 31.3283
    },
    {
      "name": "ثكنات المعادي",
      "latitude": 29.9726,
      "longitude": 31.3314
    },
    {
      "name": "المعادي",
      "latitude": 29.9871,
      "longitude": 31.3345
    },
    {
      "name": "حدائق المعادي",
      "latitude": 30.0016,
      "longitude": 31.3376
    },
    {
      "name": "دار السلام",
      "latitude": 30.0161,
      "longitude": 31.3407
    },
    {
      "name": "الزهراء",
      "latitude": 30.0306,
      "longitude": 31.3438
    },
    {
      "name": "مار جرجس",
      "latitude": 30.0451,
      "longitude": 31.3469
    },
    {
      "name": "الملك الصالح",
      "latitude": 30.0596,
      "longitude": 31.3500
    },
    {
      "name": "السيدة زينب",
      "latitude": 30.0741,
      "longitude": 31.3531
    },
    {
      "name": "سعد زغلول",
      "latitude": 30.0886,
      "longitude": 31.3562
    },
    {
      "name": "السادات",
      "latitude": 30.1031,
      "longitude": 31.3593
    },
    {
      "name": "ناصر",
      "latitude": 30.1176,
      "longitude": 31.3624
    },
    {
      "name": "عرابي",
      "latitude": 30.1321,
      "longitude": 31.3655
    },
    {
      "name": "الشهداء",
      "latitude": 30.1466,
      "longitude": 31.3686
    },
    {
      "name": "غمرة",
      "latitude": 30.1611,
      "longitude": 31.3717
    },
    {
      "name": "الدمرداش",
      "latitude": 30.1756,
      "longitude": 31.3748
    },
    {
      "name": "منشية الصدر",
      "latitude": 30.1901,
      "longitude": 31.3779
    },
    {
      "name": "كوبري القبة",
      "latitude": 30.2046,
      "longitude": 31.3810
    },
    {
      "name": "حمامات القبة",
      "latitude": 30.2191,
      "longitude": 31.3841
    },
    {
      "name": "سراي القبة",
      "latitude": 30.2336,
      "longitude": 31.3872
    },
    {
      "name": "حدائق الزيتون",
      "latitude": 30.2481,
      "longitude": 31.3903
    },
    {
      "name": "حلمية الزيتون",
      "latitude": 30.2626,
      "longitude": 31.3934
    },
    {
      "name": "المطرية",
      "latitude": 30.2771,
      "longitude": 31.3965
    },
    {
      "name": "عين شمس",
      "latitude": 30.2916,
      "longitude": 31.3996
    },
    {
      "name": "عزبة النخل",
      "latitude": 30.3061,
      "longitude": 31.4027
    },
    {
      "name": "المرج",
      "latitude": 30.3206,
      "longitude": 31.4058
    },
    {
      "name": "المرج الجديدة",
      "latitude": 30.3351,
      "longitude": 31.4089
    },
    {
      "name": "شبرا الخيمة",
      "latitude": 30.124081,
      "longitude": 31.243502
    },
    {
      "name": "كلية الزراعة",
      "latitude": 30.115,
      "longitude": 31.245
    },
    {
      "name": "المظلات",
      "latitude": 30.105,
      "longitude": 31.240
    },
    {
      "name": "روض الفرج",
      "latitude": 30.095,
      "longitude": 31.235
    },
    {
      "name": "مسرة",
      "latitude": 30.085,
      "longitude": 31.230
    },
    {
      "name": "الشهداء (رمسيس)",
      "latitude": 30.064,
      "longitude": 31.248
    },
    {
      "name": "العتبة",
      "latitude": 30.065,
      "longitude": 31.220
    },
    {
      "name": "أحمد عرابي",
      "latitude": 30.055,
      "longitude": 31.215
    },
    {
      "name": "جمال عبد الناصر",
      "latitude": 30.045,
      "longitude": 31.210
    },
    {
      "name": "السادات (التحرير)",
      "latitude": 30.035,
      "longitude": 31.205
    },
    {
      "name": "الأوبرا",
      "latitude": 30.025,
      "longitude": 31.200
    },
    {
      "name": "الدقي",
      "latitude": 30.015,
      "longitude": 31.195
    },
    {
      "name": "البحوث",
      "latitude": 30.005,
      "longitude": 31.190
    },
    {
      "name": "جامعة القاهرة",
      "latitude": 29.995,
      "longitude": 31.185
    },
    {
      "name": "فيصـل",
      "latitude": 29.985,
      "longitude": 31.180
    },
    {
      "name": "الجيزة",
      "latitude": 29.975,
      "longitude": 31.175
    },
    {
      "name": "أم المصريين",
      "latitude": 29.965,
      "longitude": 31.170
    },
    {
      "name": "ساقية مكي",
      "latitude": 29.955,
      "longitude": 31.165
    },
    {
      "name": "المنيب",
      "latitude": 29.945,
      "longitude": 31.160
    },
    {
      "name": "عدلي منصور",
      "latitude": 30.1234,
      "longitude": 31.4567
    },
    {
      "name": "الهايكستب",
      "latitude": 30.2345,
      "longitude": 31.5678
    },
    {
      "name": "عمر بن الخطاب",
      "latitude": 30.3456,
      "longitude": 31.6789
    },
    {
      "name": "قباء",
      "latitude": 30.4567,
      "longitude": 31.7890
    },
    {
      "name": "هشام بركات",
      "latitude": 30.5678,
      "longitude": 31.8901
    },
    {
      "name": "النزهة",
      "latitude": 30.6789,
      "longitude": 31.9012
    },
    {
      "name": "نادي الشمس",
      "latitude": 30.7890,
      "longitude": 31.0123
    },
    {
      "name": "ألف مسكن",
      "latitude": 30.8901,
      "longitude": 31.1234
    },
    {
      "name": "ميدان هيليوبليس",
      "latitude": 30.9012,
      "longitude": 31.2345
    },
    {
      "name": "هارون",
      "latitude": 30.0123,
      "longitude": 31.3456
    },
    {
      "name": "الأهرام",
      "latitude": 30.1234,
      "longitude": 31.4567
    },
    {
      "name": "كلية البنات",
      "latitude": 30.2345,
      "longitude": 31.5678
    },
    {
      "name": "استاد القاهرة",
      "latitude": 30.3456,
      "longitude": 31.6789
    },
    {
      "name": "المعرض",
      "latitude": 30.4567,
      "longitude": 31.7890
    },
    {
      "name": "العباسية",
      "latitude": 30.5678,
      "longitude": 31.8901
    },
    {
      "name": "عبده باشا",
      "latitude": 30.6789,
      "longitude": 31.9012
    },
    {
      "name": "الجيش",
      "latitude": 30.7890,
      "longitude": 31.0123
    },
    {
      "name": "باب الشعرية",
      "latitude": 30.8901,
      "longitude": 31.1234
    },
    {
      "name": "ماسبيرو",
      "latitude": 30.9012,
      "longitude": 31.2345
    },
    {
      "name": "صفاء حجازي",
      "latitude": 30.0123,
      "longitude": 31.3456
    },
    {
      "name": "الكيت كات",
      "latitude": 30.1234,
      "longitude": 31.4567
    },
    {
      "name": "السودان",
      "latitude": 30.2345,
      "longitude": 31.5678
    },
    {
      "name": "إمبابة",
      "latitude": 30.3456,
      "longitude": 31.6789
    },
    {
      "name": "البوهى",
      "latitude": 30.4567,
      "longitude": 31.7890
    },
    {
      "name": "القومية العربية",
      "latitude": 30.5678,
      "longitude": 31.8901
    },
    {
      "name": "الطريق الدائري",
      "latitude": 30.6789,
      "longitude": 31.9012
    },
    {
      "name": "محور روض الفرج",
      "latitude": 30.7890,
      "longitude": 31.0123
    },
    {
      "name": "العتبة",
      "latitude": 30.8901,
      "longitude": 31.1234
    },
    {
      "name": "ناصر",
      "latitude": 30.9012,
      "longitude": 31.2345
    }
  ]
